City_ID,City,Latitude,Longitude,Max_Temp,Humidity,Cloudy,Wind_Speed,Country,Date
0,Bud,39.447,-86.1758,37.0,77,73,6.33,US,1619057239
1,Guerrero Negro,27.9769,-114.0611,58.89,74,99,16.82,MX,1619057240
2,Nikolskoye,59.7035,30.7861,36.0,93,40,4.47,RU,1619057240
3,Lorengau,-2.0226,147.2712,86.23,69,100,6.8,PG,1619057241
4,Kaitangata,-46.2817,169.8464,59.0,80,25,3.0,NZ,1619057241
5,İskilip,40.7353,34.4739,45.3,87,46,4.18,TR,1619057241
6,Hermanus,-34.4187,19.2345,66.99,86,83,8.99,ZA,1619057242
7,Pontes e Lacerda,-15.2261,-59.3353,75.6,75,68,3.0,BR,1619057242
8,Ikom,5.9667,8.7063,73.81,96,100,1.41,NG,1619057165
9,San Quintín,30.4833,-115.95,58.24,67,18,14.05,MX,1619057243
10,Thompson,55.7435,-97.8558,53.6,30,40,6.91,CA,1619057244
11,Qaanaaq,77.484,-69.3632,8.31,72,80,8.23,GL,1619057244
12,Sant Just Desvern,41.386,2.0757,54.0,82,75,4.61,ES,1619057244
13,Alofi,-19.0595,-169.9187,86.0,70,75,10.36,NU,1619057245
14,Chigorodó,7.6664,-76.6811,75.13,96,59,2.15,CO,1619057245
15,Mutsu,41.2894,141.2169,57.0,41,20,12.66,JP,1619057246
16,Touros,-5.1989,-35.4608,78.8,89,40,2.3,BR,1619057246
17,Dingle,10.9995,122.6711,89.46,54,100,14.56,PH,1619057246
18,Pacific Grove,36.6177,-121.9166,52.0,90,72,7.09,US,1619056949
19,Richards Bay,-28.783,32.0377,66.78,89,65,7.83,ZA,1619057247
20,Kapaa,22.0752,-159.319,77.0,83,90,5.75,US,1619057247
21,Butaritari,3.0707,172.7902,81.91,78,100,15.75,KI,1619057248
22,Albany,42.6001,-73.9662,35.01,60,47,1.99,US,1619057248
23,Barrow,71.2906,-156.7887,23.0,86,1,8.05,US,1619057102
24,Ushuaia,-54.8,-68.3,44.6,57,0,8.05,AR,1619056986
25,Abéché,13.8292,20.8324,81.63,10,76,8.39,TD,1619057249
26,Salym,60.0625,71.4789,31.35,69,9,7.45,RU,1619057249
27,Busselton,-33.65,115.3333,62.01,79,100,5.99,AU,1619057250
28,Provideniya,64.3833,-173.3,33.8,55,0,6.71,RU,1619057250
29,Charlestown,-32.95,151.6667,68.0,52,0,4.0,AU,1619057071
30,George Town,5.4112,100.3354,86.0,83,20,3.44,MY,1619057251
31,Rikitea,-23.1203,-134.9692,77.05,76,100,11.7,PF,1619057251
32,Hilo,19.7297,-155.09,82.4,57,75,9.22,US,1619057252
33,Hobart,-42.8794,147.3294,59.0,44,75,18.41,AU,1619057176
34,Saint Paul Harbor,57.79,-152.4072,42.8,87,90,18.41,US,1619057252
35,Zhigansk,66.7697,123.3711,11.05,78,99,2.13,RU,1619057253
36,Ferreira do Alentejo,38.05,-8.0333,57.2,100,40,9.22,PT,1619057253
37,Grindavik,63.8424,-22.4338,42.8,93,90,12.66,IS,1619057253
38,Spokane,47.6166,-117.3677,66.2,19,1,10.36,US,1619057001
39,Saint George,37.1041,-113.5841,71.6,11,1,24.16,US,1619057160
40,Kudat,6.8837,116.8477,86.0,70,20,9.22,MY,1619057255
41,Rzhaksa,52.1338,42.0264,39.43,92,15,7.7,RU,1619057256
42,Esperance,-33.8667,121.9,60.8,77,90,6.91,AU,1619057257
43,Dryden,49.7833,-92.7503,37.4,48,1,5.75,CA,1619057257
44,Barra do Corda,-5.5,-45.25,73.72,97,75,1.34,BR,1619057258
45,Port Blair,11.6667,92.75,80.6,78,40,3.67,IN,1619057258
46,Hobyo,5.3505,48.5268,83.16,72,100,8.1,SO,1619057173
47,Bījār,35.8668,47.6051,55.45,33,18,3.15,IR,1619057259
48,Beloha,-25.1667,45.05,68.13,91,29,10.69,MG,1619057240
49,Port Alfred,-33.5906,26.891,69.01,88,100,8.37,ZA,1619057259
50,Rocha,-34.4833,-54.3333,62.91,79,0,11.01,UY,1619057260
51,Codrington,-38.2667,141.9667,58.91,59,66,15.68,AU,1619057260
52,Lichinga,-13.3128,35.2406,59.0,100,75,9.22,MZ,1619057260
53,Yulara,-25.2406,130.9889,75.2,25,0,11.5,AU,1619057261
54,Chokurdakh,70.6333,147.9167,16.09,88,100,12.62,RU,1619057261
55,Avarua,-21.2078,-159.775,82.4,65,40,16.11,CK,1619057262
56,Igrim,63.1906,64.4162,36.84,86,58,8.86,RU,1619057262
57,Cape Town,-33.9258,18.4232,64.0,94,0,4.61,ZA,1619057262
58,Severo-Kuril'sk,50.6789,156.125,37.24,89,100,12.77,RU,1619057263
59,Puerto Ayora,-0.7393,-90.3518,77.0,96,71,1.99,EC,1619057263
60,Lensk,60.7253,114.9278,27.82,67,80,5.95,RU,1619057264
61,East London,-33.0153,27.9116,68.52,88,69,3.76,ZA,1619057264
62,Nishihara,26.1842,127.7558,71.6,83,90,17.27,JP,1619057265
63,Bluff,-46.6,168.3333,55.99,83,100,1.01,NZ,1619057265
64,Lompoc,34.6391,-120.4579,53.6,76,43,9.22,US,1619057265
65,Saint Anthony,45.0205,-93.218,41.0,52,90,5.32,US,1619057266
66,Inhambane,-23.865,35.3833,69.84,81,0,4.85,MZ,1619057266
67,Noumea,-22.2763,166.4572,80.01,78,90,10.36,NC,1619057267
68,Tigre,-34.426,-58.5796,71.01,78,0,16.11,AR,1619057267
69,Tuktoyaktuk,69.4541,-133.0374,12.2,79,20,21.85,CA,1619057268
70,Nguru,12.8791,10.4526,85.1,9,99,5.12,NG,1619057268
71,Punta Arenas,-53.15,-70.9167,44.6,53,0,3.67,CL,1619057268
72,Ponta do Sol,32.6667,-17.1,63.0,77,94,1.01,PT,1619057269
73,Dikson,73.5069,80.5464,25.34,97,100,12.35,RU,1619057269
74,Rāmhormoz,31.28,49.6035,79.68,23,100,1.03,IR,1619057270
75,Bathsheba,13.2167,-59.5167,78.8,65,40,19.57,BB,1619057270
76,Tiksi,71.6872,128.8694,11.41,81,97,10.63,RU,1619057271
77,Tessalit,20.1986,1.0114,78.84,9,1,6.44,ML,1619057271
78,Dvinskoy Bereznik,62.8551,42.7072,37.11,96,100,10.47,RU,1619057272
79,Jamestown,42.097,-79.2353,30.99,86,75,9.22,US,1619057272
80,Sitka,57.0531,-135.33,55.4,30,20,4.61,US,1619057272
81,Vaitape,-16.5167,-151.75,81.5,73,80,15.03,PF,1619057273
82,Ngama,11.7833,17.1667,82.56,44,90,5.88,TD,1619057273
83,Eganville,45.5334,-77.0994,32.0,40,90,10.36,CA,1619057274
84,Norman Wells,65.282,-126.8329,33.8,37,75,24.16,CA,1619057274
85,Pisco,-13.7,-76.2167,66.2,88,14,14.97,PE,1619057274
86,Aykhal,66.0,111.5,19.51,86,99,12.57,RU,1619057275
87,Wiarton,44.7407,-81.1332,30.2,64,20,6.91,CA,1619057275
88,Faanui,-16.4833,-151.75,81.57,72,81,15.08,PF,1619057276
89,Belaya Gora,68.5333,146.4167,19.11,88,100,14.85,RU,1619057276
90,Clyde River,70.4692,-68.5914,12.2,92,40,3.44,CA,1619057277
91,Téra,14.0078,0.7531,89.08,10,66,7.56,NE,1619057277
92,Kjøpsvik,68.097,16.3742,32.0,80,20,8.05,NO,1619057277
93,Mahébourg,-20.4081,57.7,77.0,94,40,4.61,MU,1619057278
94,Whitehorse,60.7161,-135.0538,41.0,28,1,5.75,CA,1619057278
95,Ibanda,-2.7974,32.4746,62.29,95,100,4.25,TZ,1619057279
96,Khatanga,71.9667,102.5,21.07,93,100,17.6,RU,1619057279
97,Homer,59.6425,-151.5483,54.0,50,1,3.44,US,1619057279
98,Hofn,64.2539,-15.2082,40.69,56,100,4.56,IS,1619057280
99,Hithadhoo,-0.6,73.0833,82.44,68,59,6.15,MV,1619057281
100,Banjarmasin,-3.3244,114.591,84.2,74,83,3.44,ID,1619057281
101,Kalush,49.0119,24.3731,47.05,76,100,7.43,UA,1619057281
102,Røros,62.5747,11.3842,26.6,74,76,11.5,NO,1619057282
103,Buchanan,5.8808,-10.0467,79.21,87,97,4.63,LR,1619057282
104,Mataura,-46.1927,168.8643,55.99,83,87,1.01,NZ,1619057283
105,Vardø,70.3705,31.1107,36.32,91,100,23.91,NO,1619057283
106,Kutum,14.2,24.6667,74.57,13,69,8.16,SD,1619057284
107,Korla,41.7597,86.1469,63.23,26,100,11.52,CN,1619057284
108,Medianeira,-25.2953,-54.0939,66.2,82,0,4.61,BR,1619057285
109,Lengshuitan,26.4111,111.5956,70.03,92,100,2.91,CN,1619057285
110,Tooele,40.5308,-112.2983,48.0,66,1,4.61,US,1619057196
111,Pasni,25.2631,63.471,81.0,62,0,10.94,PK,1619057286
112,Qaqortoq,60.7167,-46.0333,46.4,29,75,34.52,GL,1619057286
113,Yellowknife,62.456,-114.3525,18.0,57,75,18.41,CA,1619057287
114,São Filipe,14.8961,-24.4956,72.43,71,90,12.55,CV,1619057287
115,Saskylakh,71.9167,114.0833,10.17,85,97,10.45,RU,1619057287
116,Finspång,58.7058,15.7674,39.2,81,75,11.5,SE,1619057288
117,Eyl,7.9803,49.8164,81.27,77,49,3.8,SO,1619057288
118,Akureyri,65.6835,-18.0878,37.4,93,0,3.44,IS,1619057289
119,Gonzalez,30.5816,-87.2914,59.0,44,1,9.22,US,1619057289
120,Saryg-Sep,51.5,95.6,35.92,29,97,2.35,RU,1619057289
121,Klaksvík,62.2266,-6.589,41.0,81,75,5.75,FO,1619057290
122,Washington,47.5001,-120.5015,70.0,23,14,8.99,US,1619057244
123,Burns Lake,54.2331,-125.7533,51.8,30,99,8.05,CA,1619057291
124,Port Elizabeth,-33.918,25.5701,64.4,94,75,4.61,ZA,1619057291
125,Atuona,-9.8,-139.0333,80.13,79,25,21.88,PF,1619057291
126,Mahon,39.8885,4.2658,55.4,76,0,8.05,ES,1619057292
127,Kavieng,-2.5744,150.7967,84.04,69,75,8.93,PG,1619057292
128,Kruisfontein,-34.0033,24.7314,62.01,97,100,1.99,ZA,1619057293
129,Gunjur,13.2019,-16.7339,68.0,94,40,12.66,GM,1619057293
130,Abay,49.6311,72.8539,26.6,74,0,2.24,KZ,1619057293
131,Ilulissat,69.2167,-51.1,28.4,50,46,16.11,GL,1619057294
132,Vanimo,-2.6741,141.3028,85.64,63,100,5.14,PG,1619057294
133,Berlevåg,70.8578,29.0864,36.45,67,100,13.22,NO,1619057295
134,Saint-Joseph,-21.3667,55.6167,78.8,78,20,13.8,RE,1619057295
135,Tasiilaq,65.6145,-37.6368,26.6,54,75,19.57,GL,1619057296
136,Bukama,-9.2,25.85,69.69,90,99,1.23,CD,1619057297
137,Monterey,36.2505,-121.2516,55.0,1,0,11.99,US,1619057297
138,Coquimbo,-29.9533,-71.3436,57.2,88,0,6.91,CL,1619057297
139,Viedma,-40.8135,-62.9967,63.39,91,100,8.86,AR,1619057168
140,Broken Hill,-31.95,141.4333,62.6,42,0,12.66,AU,1619057298
141,Pevek,69.7008,170.3133,30.87,71,14,16.33,RU,1619057298
142,Yerbogachën,61.2767,108.0108,27.01,67,60,6.49,RU,1619057299
143,Prince Rupert,54.3161,-130.3201,50.0,71,1,9.22,CA,1619057123
144,Ţahţā,26.7693,31.5021,75.2,27,0,6.91,EG,1619057300
145,Mount Isa,-20.7333,139.5,84.2,15,99,19.57,AU,1619057300
146,Torbay,47.6666,-52.7314,39.2,81,20,3.44,CA,1619057128
147,Carnarvon,-24.8667,113.6333,82.4,28,100,12.66,AU,1619057301
148,Cherskiy,68.75,161.3,33.6,78,100,20.74,RU,1619057301
149,Vaini,-21.2,-175.2,84.2,79,75,8.05,TO,1619057301
150,Castro,-24.7911,-50.0119,55.76,95,79,7.27,BR,1619057235
151,Temir,49.1414,57.13,42.89,38,100,13.18,KZ,1619057302
152,Tromsø,69.6496,18.957,32.0,74,75,3.44,NO,1619057302
153,The Valley,18.217,-63.0578,79.0,73,20,12.66,AI,1619057303
154,Port Hardy,50.6996,-127.4199,55.4,47,75,14.97,CA,1619057304
155,Solnechnyy,50.7214,136.6319,56.91,42,2,9.57,RU,1619057304
156,Saint-Michel-des-Saints,46.6834,-73.9159,30.99,49,99,9.01,CA,1619057304
157,Mizdah,31.4451,12.9801,62.98,30,0,12.77,LY,1619057305
158,Basoko,1.2391,23.616,71.08,93,100,1.48,CD,1619057305
159,Sur,22.5667,59.5289,82.9,49,0,5.68,OM,1619057306
160,Longyearbyen,78.2186,15.6401,17.6,73,75,10.36,SJ,1619057306
161,Lebu,-37.6167,-73.65,53.31,81,30,12.3,CL,1619057307
162,Mayahi,13.9553,7.6712,84.27,40,88,5.48,NE,1619057307
163,Ribeira Grande,38.5167,-28.7,63.41,82,62,37.58,PT,1619057307
164,Coffs Harbour,-30.3,153.1333,69.8,43,100,5.75,AU,1619057308
165,Brenham,30.1669,-96.3977,57.2,51,1,3.44,US,1619057308
166,Airai,-8.9266,125.4092,73.6,55,24,2.08,TL,1619057309
167,Amapá,1.0,-52.0,72.03,98,100,2.55,BR,1619057309
168,Iqaluit,63.7506,-68.5145,17.6,79,75,16.11,CA,1619057310
169,Isangel,-19.55,169.2667,84.2,79,75,9.06,VU,1619057310
170,The Pas,53.8251,-101.2541,59.0,25,1,8.05,CA,1619057310
171,Palana,59.1167,159.9667,30.88,97,100,3.27,RU,1619057311
172,Katsuura,35.1333,140.3,73.99,32,40,10.36,JP,1619057311
173,Villa Guerrero,18.8667,-99.65,88.0,19,40,12.66,MX,1619057312
174,Coyhaique,-45.5752,-72.0662,41.02,95,72,6.42,CL,1619057312
175,Tuy Hoa,13.0833,109.3,84.54,71,98,0.92,VN,1619057313
176,Nouadhibou,20.931,-17.0347,64.4,82,0,23.02,MR,1619057313
177,Aktas,49.7789,72.9608,26.6,74,0,2.24,KZ,1619057314
178,Upernavik,72.7868,-56.1549,13.03,67,100,6.31,GL,1619057314
179,Vila Franca do Campo,37.7167,-25.4333,64.4,94,75,23.02,PT,1619057314
180,Slave Lake,55.2834,-114.769,35.6,93,90,23.02,CA,1619057315
181,New Norfolk,-42.7826,147.0587,59.0,60,90,7.0,AU,1619057315
182,Desaguadero,-16.5656,-69.0417,45.19,56,49,4.12,PE,1619057316
183,Srednekolymsk,67.45,153.6833,31.73,99,57,14.12,RU,1619057316
184,Tuatapere,-46.1333,167.6833,55.99,83,100,1.01,NZ,1619057317
185,Narsaq,60.9167,-46.05,46.4,29,75,34.52,GL,1619057317
186,Sandwick,60.0,-1.25,42.8,70,90,13.8,GB,1619057317
187,Itoman,26.1247,127.6694,71.6,83,75,14.97,JP,1619057318
188,Oussouye,12.485,-16.5469,71.73,76,76,9.64,SN,1619057318
189,Tura,25.5198,90.2201,77.76,64,100,1.1,IN,1619057319
190,Rio Grande,-32.035,-52.0986,68.0,82,85,3.0,BR,1619057319
191,Hong Kong,22.2855,114.1577,80.01,73,0,1.99,HK,1619057282
192,Waipawa,-41.4122,175.5153,66.2,59,40,16.11,NZ,1619057320
193,Panjāb,34.388,67.0233,39.2,67,97,3.36,AF,1619057320
194,Namie,37.4833,141.0,71.01,24,0,11.01,JP,1619057321
195,Jacareacanga,-6.2222,-57.7528,72.9,98,60,0.72,BR,1619057321
196,General Roca,-39.0333,-67.5833,62.6,67,75,8.05,AR,1619057321
197,Mehamn,71.0357,27.8492,34.88,80,100,8.3,NO,1619057322
198,Kawalu,-7.3817,108.2082,81.57,60,6,2.91,ID,1619057322
199,Ancud,-41.8697,-73.8203,48.0,100,0,4.47,CL,1619057323
200,Niles,42.0189,-87.8028,37.99,75,20,4.61,US,1619057323
201,Nanortalik,60.1432,-45.2371,36.54,77,100,4.47,GL,1619057324
202,Khromtau,50.2503,58.4347,38.21,54,100,7.7,KZ,1619057324
203,Fortuna,40.5982,-124.1573,51.01,93,75,13.8,US,1619057324
204,Ambovombe,-25.1667,46.0833,68.18,89,3,8.43,MG,1619057325
205,Esteio,-29.8614,-51.1792,69.01,88,0,10.36,BR,1619057325
206,Atambua,-9.1061,124.8925,81.48,63,32,1.05,ID,1619057326
207,Zaysan,47.4667,84.8667,31.41,61,52,8.46,KZ,1619057326
208,Ruteng,-8.6136,120.4721,73.13,51,15,0.43,ID,1619057326
209,Kupang,-10.1667,123.5833,82.58,65,16,2.42,ID,1619057327
210,Lavrentiya,65.5833,-171.0,33.33,74,69,2.42,RU,1619057327
211,Kiryat Gat,31.61,34.7642,61.0,77,13,6.13,IL,1619057281
212,Klisura,42.7,24.45,42.01,88,1,3.11,BG,1619057328
213,Puerto Carreño,6.189,-67.4859,83.75,56,3,5.75,CO,1619057328
214,Bredasdorp,-34.5322,20.0403,62.6,94,100,9.22,ZA,1619057329
215,Codajás,-3.8367,-62.0569,73.67,94,100,2.48,BR,1619057329
216,Rome,43.2128,-75.4557,30.99,86,90,8.05,US,1619057330
217,Sistranda,63.7256,8.834,35.6,87,40,13.8,NO,1619057330
218,Saint-Philippe,-21.3585,55.7679,78.8,78,20,13.8,RE,1619057330
219,Lüderitz,-26.6481,15.1594,64.83,74,27,10.54,NA,1619057331
220,Soe,-9.8607,124.284,77.67,59,53,3.15,ID,1619057331
221,Skjervøy,70.0311,20.9714,36.36,57,100,14.18,NO,1619057332
222,Xam Nua,20.4197,104.0439,84.06,43,0,1.97,LA,1619057332
223,Portland,45.5234,-122.6762,72.0,32,75,6.91,US,1619057169
224,Inta,66.0317,60.1659,36.05,70,100,10.42,RU,1619057333
225,Ahipara,-35.1667,173.1667,66.74,63,56,4.61,NZ,1619057333
226,Wilhelmsburg,48.1057,15.6054,43.0,88,57,8.01,AT,1619057334
227,Mar del Plata,-38.0023,-57.5575,68.0,83,40,16.11,AR,1619057282
228,Pedro Escobedo,20.5,-100.1333,68.0,52,1,6.91,MX,1619057334
229,Ola,59.5833,151.2833,32.92,96,100,2.42,RU,1619057335
230,Sedona,34.8697,-111.761,66.0,12,1,13.8,US,1619057280
231,Muzhi,65.3667,64.6667,31.84,95,100,5.57,RU,1619057335
232,Karīmpur,23.9667,88.6167,87.13,58,99,8.88,IN,1619057336
233,Sémbé,1.6481,14.5806,70.27,97,99,1.21,CG,1619057336
234,Puerto del Rosario,28.5004,-13.8627,66.2,72,75,13.8,ES,1619057336
235,Le Port,-20.9373,55.2919,78.8,73,75,11.5,RE,1619057337
236,Oranjemund,-28.55,16.4333,60.8,84,0,5.37,NA,1619057337
237,Bambous Virieux,-20.3428,57.7575,77.0,94,40,4.61,MU,1619057338
238,Talnakh,69.4865,88.3972,16.9,95,100,10.69,RU,1619057338
239,Fengcheng,40.4536,124.0717,64.78,31,100,4.47,CN,1619057339
240,Três Lagoas,-20.7511,-51.6783,66.0,55,0,4.9,BR,1619057339
241,Alice Springs,-23.7,133.8833,75.2,20,0,12.66,AU,1619057340
242,Liverpool,53.4106,-2.9779,42.8,75,10,6.91,GB,1619057186
243,Piaçabuçu,-10.4056,-36.4344,78.31,87,100,8.12,BR,1619057340
244,Bethel,41.3712,-73.414,39.2,52,90,12.66,US,1619057341
245,Sambava,-14.2667,50.1667,75.24,86,100,10.09,MG,1619057341
246,Te Anau,-45.4167,167.7167,56.55,77,100,6.35,NZ,1619057342
247,Esso,55.9333,158.7,33.33,88,100,4.79,RU,1619057342
248,San-Pédro,4.7485,-6.6363,77.95,91,8,5.84,CI,1619057342
249,Nísia Floresta,-6.0911,-35.2086,80.6,89,40,2.3,BR,1619057343
250,Kumul,42.8,93.45,66.18,26,96,18.32,CN,1619057343
251,Chibombo,-14.6569,28.0706,56.55,86,0,5.17,ZM,1619057344
252,Moyo,3.6609,31.7247,64.4,93,70,2.75,UG,1619057344
253,Inuvik,68.3499,-133.7218,23.0,53,93,18.41,CA,1619057345
254,Malanje,-9.5402,16.341,63.91,91,100,3.11,AO,1619057345
255,Arraial do Cabo,-22.9661,-42.0278,69.8,100,75,5.75,BR,1619057345
256,Saldanha,-33.0117,17.9442,55.4,94,0,1.14,ZA,1619057346
257,Kamenka,51.3223,42.7678,39.0,95,14,6.87,RU,1619057346
258,Chui,-33.6971,-53.4616,66.11,75,0,13.15,UY,1619057347
259,Saurimo,-9.6608,20.3916,66.67,86,100,2.68,AO,1619057347
260,Shumskiy,54.8318,99.1328,29.39,59,100,4.63,RU,1619057348
261,Evensk,61.95,159.2333,31.89,80,100,5.68,RU,1619057348
262,Kahului,20.8947,-156.47,82.4,54,40,14.97,US,1619057349
263,Antalaha,-14.9003,50.2788,73.85,90,100,7.76,MG,1619057349
264,Ratnagiri,16.9833,73.3,79.79,72,100,5.19,IN,1619057350
265,Ostrovnoy,68.0531,39.5131,35.96,97,100,8.84,RU,1619057350
266,Margate,51.3813,1.3862,43.0,68,21,1.99,GB,1619057350
267,Vestmannaeyjar,63.4427,-20.2734,44.35,80,100,13.27,IS,1619057351
268,Sobolevo,54.4299,31.8996,38.08,96,16,7.52,RU,1619057351
269,Sironj,24.1,77.7,79.36,26,0,1.66,IN,1619057352
270,Xai-Xai,-25.0519,33.6442,65.17,93,1,3.53,MZ,1619057352
271,Pochutla,15.7432,-96.4661,82.99,57,56,1.99,MX,1619057353
272,Havelock,34.8791,-76.9013,60.01,38,1,20.71,US,1619057353
273,Luganville,-15.5333,167.1667,84.83,73,53,9.98,VU,1619057353
274,Nipawin,53.3668,-104.0009,60.8,17,1,13.8,CA,1619057354
275,La Ronge,55.1001,-105.2842,62.6,15,10,4.61,CA,1619057354
276,Qidong,31.8128,121.6561,75.0,71,84,20.69,CN,1619057355
277,Geraldton,-28.7667,114.6,78.8,31,76,20.71,AU,1619057355
278,Biržai,56.2,24.75,39.6,81,44,9.13,LT,1619057355
279,Yinchuan,38.4681,106.2731,65.26,46,50,10.78,CN,1619057356
280,Praia,14.9215,-23.5087,69.8,78,20,13.8,CV,1619057356
281,Halifax,44.6453,-63.5724,48.0,93,40,5.75,CA,1619057301
282,Yeppoon,-23.1333,150.7333,78.8,65,75,5.75,AU,1619057357
283,Walvis Bay,-22.9575,14.5053,71.8,58,32,5.86,NA,1619057357
284,Derzhavīnsk,51.1,66.3167,42.28,64,6,2.93,KZ,1619057358
285,Monroe,43.1501,-77.6831,34.0,64,90,11.5,US,1619057264
286,Igarka,67.4667,86.5833,20.86,92,100,13.51,RU,1619057359
287,Stromness,58.965,-3.296,35.6,87,75,3.44,GB,1619057359
288,Flinders,-34.5833,150.8552,66.99,42,0,8.01,AU,1619057359
289,Roebourne,-20.7833,117.1333,86.18,21,6,18.59,AU,1619057360
290,Pingxiang,27.6167,113.85,69.93,90,96,4.47,CN,1619057360
291,Ishigaki,24.3448,124.1572,75.2,94,75,16.11,JP,1619057361
292,Flin Flon,54.7682,-101.865,40.71,79,7,6.62,CA,1619057361
293,Natal,-5.795,-35.2094,80.6,83,40,4.61,BR,1619057361
294,Pachino,36.7186,15.0907,60.8,59,75,6.91,IT,1619057362
295,Batemans Bay,-35.7167,150.1833,64.99,49,1,4.16,AU,1619057362
296,Gwadar,25.1216,62.3254,79.75,70,0,9.13,PK,1619057363
297,Ayr,55.4627,-4.6339,37.4,75,90,3.44,GB,1619057363
298,Digri,25.1558,69.1113,79.12,65,0,10.45,PK,1619057363
299,Taksimo,56.3444,114.8794,28.35,38,2,5.32,RU,1619057364
300,Kristiansund,63.1115,7.732,33.8,86,20,2.3,NO,1619057345
301,Departamento de Maldonado,-34.6667,-54.9167,64.4,82,0,6.91,UY,1619057365
302,Bengkulu,-3.8004,102.2655,81.1,75,55,2.59,ID,1619057331
303,Antofagasta,-23.65,-70.4,60.8,88,75,9.22,CL,1619057365
304,Tiznit Province,29.5833,-9.5,57.45,82,54,2.28,MA,1619057366
305,Malindi,-3.2175,40.1191,78.3,85,100,12.86,KE,1619057366
306,Dhone,15.4167,77.8833,86.2,49,77,3.83,IN,1619057366
307,Nome,64.5011,-165.4064,44.6,36,1,3.44,US,1619057367
308,Santa Rosa de Copán,14.7667,-88.7833,64.63,89,100,1.45,HN,1619057367
309,La Goulette,36.8181,10.305,66.2,55,20,3.44,TN,1619057368
310,Marquette,46.5333,-87.6335,28.99,62,12,1.01,US,1619057368
311,Llanes,43.4198,-4.7549,55.99,83,100,4.36,ES,1619057369
312,Tramandaí,-29.9847,-50.1336,69.67,63,81,15.97,BR,1619057369
313,Mount Gambier,-37.8333,140.7667,59.0,67,75,16.11,AU,1619057111
314,Pedernales,18.0384,-71.744,78.82,63,46,6.69,DO,1619057370
315,Fonte Boa,-2.4959,-66.2662,74.03,98,93,2.59,BR,1619057370
316,Puerto Escondido,15.85,-97.0667,81.28,65,20,5.5,MX,1619057370
317,Spirit River,55.7833,-118.8361,33.8,86,90,19.57,CA,1619057371
318,Bartica,6.4,-58.6167,75.2,100,75,2.3,GY,1619057371
319,Takāb,36.4009,47.1133,57.38,38,16,4.32,IR,1619057372
320,Bandarbeyla,9.4942,50.8122,80.87,81,14,3.22,SO,1619057372
321,Fairbanks,64.8378,-147.7164,48.0,23,1,4.61,US,1619057372
322,Half Moon Bay,37.4636,-122.4286,55.99,87,90,5.75,US,1619057373
323,Russell,32.3502,-85.1999,53.6,53,1,8.05,US,1619057373
324,Sompeta,18.9333,84.6,83.32,76,95,10.89,IN,1619057374
325,Cabo San Lucas,22.8909,-109.9124,77.0,23,40,6.91,MX,1619057356
326,Cidreira,-30.1811,-50.2056,70.45,61,91,17.96,BR,1619057374
327,Souillac,-20.5167,57.5167,77.0,94,40,4.61,MU,1619057375
328,Sawākin,19.1059,37.3321,79.99,61,0,3.09,SD,1619057375
329,Fairview,40.8126,-73.999,43.0,45,90,17.27,US,1619057376
330,Tongchuanshi,35.0806,109.0897,59.11,71,91,5.37,CN,1619057376
331,Garhi Khairo,28.0606,67.9803,81.45,30,3,5.99,PK,1619057377
332,Lázaro Cárdenas,17.9583,-102.2,75.52,63,0,4.7,MX,1619057377
333,Henties Bay,-22.116,14.2845,68.41,73,100,4.29,NA,1619057377
334,Varkaus,62.3153,27.873,36.0,93,90,3.44,FI,1619057378
335,Novobelokatay,55.7062,58.9549,40.53,60,100,3.49,RU,1619057378
336,São João da Barra,-21.6403,-41.0511,71.1,85,0,16.44,BR,1619057379
337,San Cosme y Damián,-27.3167,-56.35,71.6,78,0,2.3,PY,1619057379
338,La Palma,33.8464,-118.0467,62.01,67,90,8.05,US,1619057379
339,Sungai Penuh,-2.0833,101.3833,70.74,86,100,2.44,ID,1619057380
340,Shebunino,46.4339,141.8603,40.73,85,100,6.96,RU,1619057380
341,Itarema,-2.9248,-39.9167,76.77,82,15,2.64,BR,1619057381
342,Port Lincoln,-34.7333,135.8667,61.25,58,100,12.39,AU,1619057381
343,Raudeberg,61.9875,5.1352,39.0,76,91,10.4,NO,1619057381
344,Kabin Buri,13.9511,101.7177,88.39,59,84,4.23,TH,1619057382
345,Bjerkvik,68.5597,17.5189,30.2,80,20,8.05,NO,1619057382
346,Kudahuvadhoo,2.6708,72.8944,81.93,68,87,6.38,MV,1619057383
347,Carutapera,-1.195,-46.02,75.6,92,97,3.85,BR,1619057383
348,Tautira,-17.7333,-149.15,86.0,58,75,14.97,PF,1619057383
349,Kaoma,-14.7833,24.8,59.86,73,47,6.22,ZM,1619057384
350,Zhangaözen,43.3,52.8,56.97,14,100,20.76,KZ,1619057385
351,Lakes Entrance,-37.8811,147.981,64.99,49,7,3.0,AU,1619057385
352,Sisimiut,66.9395,-53.6735,24.51,60,14,6.96,GL,1619057385
353,Santa Vitória do Palmar,-33.5189,-53.3681,66.4,74,0,13.35,BR,1619057386
354,Linxia Chengguanzhen,35.6003,103.2064,60.01,45,7,3.65,CN,1619057386
355,Tecpan,14.7623,-90.9947,68.0,77,90,13.8,GT,1619057387
356,Manzanillo,20.3433,-77.1167,77.77,77,51,5.37,CU,1619057387
357,Thunder Bay,48.4001,-89.3168,33.8,69,20,10.36,CA,1619057388
358,Fuyang,32.9,115.8167,58.03,91,99,11.12,CN,1619057388
359,Camocim,-2.9022,-40.8411,76.86,84,61,2.66,BR,1619057389
360,Takoradze,4.8845,-1.7554,80.49,83,28,6.69,GH,1619057389
361,Mweka,-4.85,21.5667,66.74,99,85,2.46,CD,1619057389
362,Ugoofaaru,5.6667,73.0,82.78,72,58,8.75,MV,1619057390
363,São Félix do Xingu,-6.6447,-51.995,71.2,94,100,0.16,BR,1619057390
364,Saint-François,46.4154,3.9054,39.99,93,0,2.3,FR,1619057391
365,Shenjiamen,29.9576,122.298,63.39,88,85,14.12,CN,1619057391
366,Caratinga,-19.7897,-42.1392,64.4,94,0,1.14,BR,1619057391
367,Mastic Beach,40.7668,-72.8521,42.8,56,90,14.97,US,1619057392
368,Haimen,23.1935,116.6142,77.0,61,0,4.47,CN,1619057392
369,San Patricio,28.017,-97.5169,63.0,72,1,12.66,US,1619057393
370,Thinadhoo,0.5333,72.9333,82.33,65,12,5.37,MV,1619057393
371,Puerto Asís,0.5133,-76.5007,71.06,94,42,2.42,CO,1619057393
372,Hamilton,39.1834,-84.5333,37.0,80,20,4.61,US,1619057394
373,Billings Metropolitan Area,45.7833,-108.5007,46.99,27,1,12.66,US,1619057187
374,Novikovo,51.1537,37.8879,39.81,93,10,5.66,RU,1619057394
375,Jizan,17.3333,42.6667,80.6,78,0,2.13,SA,1619057395
376,Aldan,58.6031,125.3894,24.31,65,100,12.88,RU,1619057395
377,Bom Jardim,-7.7958,-35.5872,73.4,94,0,6.91,BR,1619057396
378,San Andrés,12.5847,-81.7006,82.4,69,40,11.5,CO,1619057319
379,Soligalich,59.0778,42.2864,36.5,92,100,7.65,RU,1619057396
380,Brownsville,25.9018,-97.4975,68.0,73,75,10.36,US,1619057105
381,Emirdağ,39.0197,31.15,43.68,70,1,3.91,TR,1619057397
382,Batagay-Alyta,67.8006,130.4114,8.82,72,90,1.66,RU,1619057397
383,San José Iturbide,21.0,-100.3833,69.01,52,1,6.91,MX,1619057398
384,Panvel,18.9833,73.1,82.4,78,40,6.91,IN,1619057399
385,Awjilah,29.1081,21.2869,64.11,33,1,13.69,LY,1619057399
386,Grand Gaube,-20.0064,57.6608,77.0,85,98,4.0,MU,1619057400
387,Aklavik,68.2191,-135.0107,23.0,53,99,18.41,CA,1619057400
388,Iralaya,15.0,-83.2333,79.65,69,49,10.58,HN,1619057400
389,Paragominas,-2.9667,-47.4833,71.01,97,100,2.71,BR,1619057401
390,Matagami,49.7502,-77.6328,19.4,73,90,12.66,CA,1619057401
391,Trzebiatów,54.0615,15.2648,42.01,80,31,19.82,PL,1619057402
392,Opuwo,-18.0607,13.84,67.91,35,37,11.45,NA,1619057402
393,Imbituba,-28.24,-48.6703,69.8,68,75,10.36,BR,1619057233
394,Porto San Giorgio,43.1827,13.7934,53.01,10,100,1.57,IT,1619057404
395,Ust'-Ordynskiy,52.805,104.7508,28.4,64,0,2.24,RU,1619057404
396,Quito,-0.2299,-78.5249,53.6,100,75,4.61,EC,1619057135
397,Sandy Bay,-42.913,147.3532,59.0,44,75,18.41,AU,1619057405
398,Luanda,-8.8368,13.2343,79.0,88,79,3.83,AO,1619057304
399,Hamelin,52.104,9.3562,41.0,65,71,8.05,DE,1619057406
400,Āstāneh-ye Ashrafīyeh,37.2596,49.9444,62.6,82,20,5.7,IR,1619057406
401,Bilibino,68.0546,166.4372,30.04,74,26,3.04,RU,1619057407
402,Chitipa,-9.7024,33.2697,60.21,96,99,2.51,MW,1619057407
403,Cartagena,10.3997,-75.5144,82.4,78,20,3.44,CO,1619057407
404,Chilca,-12.5211,-76.7372,69.01,82,0,12.66,PE,1619057408
405,Karaj,35.8355,51.0103,69.8,32,0,9.22,IR,1619057408
406,Kuching,1.55,110.3333,80.6,89,40,3.44,MY,1619057400
407,Nemuro,43.3236,145.575,37.4,70,75,12.66,JP,1619057409
408,Ucluelet,48.9329,-125.5528,57.2,67,75,2.3,CA,1619057410
409,Paamiut,61.994,-49.6678,33.76,76,100,6.11,GL,1619057410
410,Skellefteå,64.7507,20.9528,37.99,81,90,9.22,SE,1619057411
411,Key Largo,25.0865,-80.4473,79.0,83,66,9.78,US,1619057411
412,Yumen,40.2833,97.2,66.24,14,100,1.95,CN,1619057411
413,Muş Province,39.0,41.75,50.72,70,33,3.53,TR,1619057376
414,Varhaug,58.6147,5.6457,39.0,83,52,1.01,NO,1619057412
415,Vilyuysk,63.7553,121.6247,21.81,82,100,3.78,RU,1619057412
416,Hasaki,35.7333,140.8333,75.0,21,20,12.66,JP,1619057413
417,Rawson,-43.3002,-65.1023,59.0,88,40,8.03,AR,1619057413
418,Ixtapa,20.7,-105.2,77.0,78,20,8.05,MX,1619057414
419,Havøysund,70.9963,24.6622,33.8,69,75,4.61,NO,1619057414
420,Los Llanos de Aridane,28.6585,-17.9182,66.2,72,75,6.91,ES,1619057415
421,Şebinkarahisar,40.2883,38.4236,44.15,71,24,0.45,TR,1619057415
422,Vallenar,-28.5708,-70.7581,63.16,56,100,1.54,CL,1619057340
423,Balikpapan,-1.2675,116.8289,82.33,75,96,7.92,ID,1619057351
424,Padang,-0.9492,100.3543,75.2,94,20,2.3,ID,1619057416
425,Yarmouth,41.7057,-70.2286,53.6,94,90,11.5,US,1619057416
426,Talcahuano,-36.7167,-73.1167,55.4,82,75,6.91,CL,1619057417
427,Khovd,48.0056,91.6419,30.45,71,100,5.12,MN,1619057417
428,Nelson Bay,-32.7167,152.15,66.99,39,20,21.85,AU,1619057417
429,Plettenberg Bay,-34.0527,23.3716,65.64,94,97,8.08,ZA,1619057418
430,Elko,41.0002,-115.5012,55.4,26,1,4.61,US,1619057419
431,Moose Factory,51.2585,-80.6094,21.2,79,1,6.91,CA,1619057419
432,Vao,-22.6667,167.4833,75.33,73,2,4.63,NC,1619057419
433,Itaqui,-29.1253,-56.5531,66.4,65,13,9.51,BR,1619057420
434,Tarauacá,-8.1614,-70.7656,72.57,98,96,1.7,BR,1619057420
435,Xinan,26.72,119.8556,65.95,80,100,3.29,CN,1619057421
436,Chongwe,-15.3292,28.682,55.4,88,0,3.44,ZM,1619057421
437,Madingou,-4.1536,13.55,72.84,97,100,2.82,CG,1619057423
438,Parabel',58.6978,81.4825,22.78,85,11,6.31,RU,1619057423
439,Kualakapuas,-3.0091,114.3876,84.2,74,100,3.44,ID,1619057424
440,Oriximiná,-1.7656,-55.8661,74.91,92,93,2.21,BR,1619057296
441,Oudtshoorn,-33.5907,22.2014,59.0,100,90,2.3,ZA,1619057424
442,Kloulklubed,7.0419,134.2556,84.2,79,75,6.91,PW,1619057425
443,Lata,40.1629,-8.3327,55.99,95,98,1.01,PT,1619057425
444,Belozërskoye,55.8214,65.5842,40.3,74,6,7.2,RU,1619057426
445,Port Macquarie,-31.4333,152.9167,69.01,41,0,1.99,AU,1619057426
446,Sicuani,-14.2694,-71.2261,46.74,80,100,4.83,PE,1619057427
447,Husavik,66.0449,-17.3389,37.4,93,20,5.75,IS,1619057427
448,Bokoro,12.3807,17.0568,85.93,14,71,8.14,TD,1619057428
449,Atar,20.5169,-13.0499,77.18,17,0,8.32,MR,1619057428
450,Largo,27.9095,-82.7873,73.0,60,1,4.61,US,1619057322
451,Lagoa,39.05,-27.9833,62.94,81,100,36.66,PT,1619057429
452,Lingyuan,41.24,119.4011,47.1,69,100,7.25,CN,1619057430
453,Joshīmath,30.5667,79.5667,48.65,97,100,0.22,IN,1619057430
454,Pasvalys,56.0594,24.4036,41.0,81,0,9.22,LT,1619057431
455,Bālāghāt,21.8,80.1833,84.0,43,100,0.78,IN,1619057431
456,Inírida,3.8653,-67.9239,76.55,88,43,1.57,CO,1619057431
457,Ust-Maya,60.4167,134.5333,30.24,64,100,6.6,RU,1619057432
458,Bahía Honda,22.9036,-83.1592,75.78,82,34,2.68,CU,1619057283
459,Maicao,11.3832,-72.2432,78.66,75,58,13.06,CO,1619057311
460,Iquique,-20.2208,-70.1431,68.0,64,90,9.22,CL,1619057433
461,Campina Verde,-19.5356,-49.4864,64.76,52,0,4.03,BR,1619057433
462,Povenets,62.8487,34.8262,33.22,96,100,6.85,RU,1619057433
463,Taoudenni,22.6783,-3.9836,86.02,9,0,9.37,ML,1619057434
464,Chicama,-7.8447,-79.1469,64.4,94,40,8.05,PE,1619057434
465,Dunedin,-45.8742,170.5036,62.01,68,15,10.0,NZ,1619057435
466,Coahuayana Viejo,18.7333,-103.6833,77.0,41,1,0.81,MX,1619057435
467,Okakarara,-20.5833,17.4333,55.38,42,0,6.38,NA,1619057436
468,Constitución,-35.3333,-72.4167,56.03,92,93,4.36,CL,1619057173
469,Vostok,46.4856,135.8833,65.98,20,0,2.37,RU,1619057436
470,Hirara,24.8,125.2833,75.2,94,75,16.11,JP,1619057437
471,La Asuncion,11.0333,-63.8628,76.53,85,0,14.07,VE,1619057437
472,Kafanchan,9.5833,8.3,73.08,78,100,2.06,NG,1619057173
473,Bonfim,3.0833,-59.95,79.48,70,0,10.2,BR,1619057438
474,Baruun-Urt,46.6806,113.2792,54.34,41,73,17.36,MN,1619057438
475,Necochea,-38.5473,-58.7368,66.0,88,100,17.0,AR,1619057438
476,Charter Township of Clinton,42.587,-82.9199,37.99,55,75,10.36,US,1619057254
477,La Romana,18.4273,-68.9728,73.4,100,20,9.1,DO,1619057439
478,Mabaruma,8.2,-59.7833,74.61,88,35,3.65,GY,1619057439
479,Leoben,47.3461,15.1257,45.0,93,51,1.14,AT,1619057440
480,Kandrian,-6.2167,149.55,81.07,80,100,2.21,PG,1619057440
481,Río Gallegos,-51.6226,-69.2181,33.8,64,0,9.22,AR,1619057441
482,Kununurra,-15.7667,128.7333,89.6,31,42,10.36,AU,1619057441
483,Tiarei,-17.5333,-149.3333,86.0,58,75,14.97,PF,1619057441
484,Lyndon,38.2567,-85.6016,39.99,60,1,3.22,US,1619057442
485,Buala,-8.145,159.5921,85.03,69,99,1.72,SB,1619057442
486,Leningradskiy,69.3833,178.4167,36.64,76,5,5.55,RU,1619057443
487,Salalah,17.0151,54.0924,78.8,73,40,4.61,OM,1619057443
488,Tilichiki,60.4667,166.1,29.08,76,5,4.54,RU,1619057444
489,Mosquera,4.7059,-74.2302,53.6,94,40,2.3,CO,1619057444
490,Avera,33.194,-82.5271,53.6,37,1,10.36,US,1619057445
491,LaBelle,26.7617,-81.4384,73.99,78,40,8.03,US,1619057445
492,Adrar,20.5022,-10.0711,76.23,13,2,11.77,MR,1619057445
493,Anamur,36.0751,32.8369,55.4,88,0,5.75,TR,1619057446
494,São Desidério,-12.3633,-44.9733,69.33,94,99,2.48,BR,1619057446
495,Kichera,55.9375,110.0997,26.96,58,64,4.16,RU,1619057447
496,Sioux Lookout,50.1001,-91.917,37.4,44,20,2.3,CA,1619057447
497,Nālūt,30.3333,10.85,68.94,27,0,16.64,LY,1619057447
498,Mpongwe,-13.5091,28.155,57.38,89,0,5.01,ZM,1619057448
499,Kysyl-Syr,63.8986,122.7617,21.16,79,54,4.88,RU,1619057448
500,Motril,36.7507,-3.5179,62.01,80,82,1.01,ES,1619057449
501,Visby,57.6409,18.296,39.2,81,90,8.05,SE,1619057449
502,Young,-32.6833,-57.6333,69.01,80,100,3.0,UY,1619057450
503,Leshukonskoye,64.8989,45.7622,39.83,88,100,10.4,RU,1619057450
504,Chirongui,-12.9319,45.1483,82.4,78,75,12.66,YT,1619057451
505,Vozhega,60.4725,40.2213,35.22,93,100,8.95,RU,1619057451
506,Lichuan,30.3,108.85,63.59,75,10,3.06,CN,1619057452
507,Altay,47.8667,88.1167,30.67,67,72,4.65,CN,1619057362
508,Bayir,37.2687,28.2167,44.6,93,0,2.3,TR,1619057452
509,Labuhan,-6.8844,112.2051,82.04,68,26,1.25,ID,1619057453
510,Zyryanka,65.75,150.85,28.67,82,100,12.97,RU,1619057453
511,Manzanares,38.9991,-3.3699,53.01,96,100,3.0,ES,1619057443
512,Gravdal,68.1214,13.5031,33.78,52,41,2.73,NO,1619057454
513,Teguise,29.0605,-13.564,64.4,77,20,6.91,ES,1619057454
514,Douglas,41.3,-96.167,41.0,42,1,3.69,US,1619057455
515,Huarmey,-10.0681,-78.1522,69.55,84,12,9.6,PE,1619057455
516,Mēga,4.05,38.3,58.71,90,90,5.84,ET,1619057455
517,Bacolod City,10.6667,122.95,85.42,66,99,16.71,PH,1619057456
518,Kasama,-10.2129,31.1808,60.6,97,100,3.58,ZM,1619057456
519,Jadu,31.953,12.0261,64.31,26,3,26.51,LY,1619057457
520,Tankhoy,51.5528,105.1306,29.08,75,100,3.4,RU,1619057457
521,Lithakia,37.7167,20.8333,46.4,87,20,3.44,GR,1619057457
522,Pauini,-7.7136,-66.9764,72.79,98,80,1.39,BR,1619057458
523,Bakchar,57.0186,82.0711,26.01,80,6,5.91,RU,1619057458
524,Quelimane,-17.8786,36.8883,73.4,94,75,4.36,MZ,1619057459
525,Saint-Augustin,51.226,-58.6502,37.38,81,100,4.85,CA,1619057459
526,Årnes,60.1211,11.4663,35.01,51,0,14.97,NO,1619057459
527,Alcalá la Real,37.4614,-3.923,53.6,82,75,4.61,ES,1619057356
528,South River,40.4465,-74.386,43.0,53,5,1.01,US,1619057460
529,Cap Malheureux,-19.9842,57.6142,77.0,85,98,4.0,MU,1619057461
530,Bulgan,48.8125,103.5347,29.41,51,99,7.65,MN,1619057461
531,Sindor,62.8629,51.8905,40.03,89,100,11.83,RU,1619057462
532,Dzilam González,21.2833,-88.9333,76.96,84,5,8.12,MX,1619057462
533,Nara,34.6851,135.8049,73.0,26,75,2.3,JP,1619057462
534,Mumford,5.2618,-0.759,81.21,83,50,7.02,GH,1619057463
535,Barra de Tecoanapa,16.5167,-98.75,79.25,66,100,5.93,MX,1619057463
536,Dhārchula,29.85,80.5333,57.4,83,100,2.24,IN,1619057464
537,Qeshm,26.9581,56.2719,73.4,94,64,4.61,IR,1619057464
538,Tezu,27.9167,96.1667,85.14,30,91,0.47,IN,1619057465
539,Fort Nelson,58.8053,-122.7002,32.0,43,75,11.5,CA,1619057465
